City_ID,City,Lat,Lng,Max Temp,Humidity,Cloudiness,Wind Speed,Country,Date
0,west island,-12.1568,96.8225,24.99,83,75,6.17,CC,1691610592
1,kayangel,8.0823,134.7173,27.77,77,32,7.93,PW,1691610765
2,waitangi,-43.9535,-176.5597,9.34,83,94,2.24,NZ,1691611105
3,grytviken,-54.2811,-36.5092,-7.22,65,3,3.35,GS,1691610753
4,adamstown,-25.066,-130.1015,18.82,72,40,9.61,PN,1691610574
5,karratha,-20.7377,116.8463,20.36,55,0,3.02,AU,1691610750
6,san jose,37.3394,-121.895,31.11,43,0,5.66,US,1691610826
7,georgetown,5.4112,100.3354,27.23,94,40,2.57,MY,1691610653
8,mweka,-4.85,21.5667,24.39,50,50,1.16,CD,1691611105
9,ribeira grande,38.5167,-28.7,26.22,73,20,6.17,PT,1691610755
10,amstetten,48.1229,14.8721,16.12,100,100,1.1,AT,1691611105
11,puerto ayora,-0.7393,-90.3518,30.98,86,99,3.58,EC,1691611105
12,trondheim,63.4305,10.3951,16.62,65,8,1.34,NO,1691611106
13,wailua homesteads,22.0669,-159.378,27.44,70,75,9.77,US,1691611106
14,kenora,49.8167,-94.4337,17.54,63,75,6.17,CA,1691611106
15,port-aux-francais,-49.35,70.2167,2.41,79,87,12.29,TF,1691610751
16,happy valley-goose bay,53.3168,-60.3315,17.17,82,100,5.14,CA,1691611106
17,whitehorse,60.7161,-135.0538,19.5,46,40,3.6,CA,1691611106
18,okeechobee,27.2439,-80.8298,37.22,65,20,2.06,US,1691610962
19,kenai,60.5544,-151.2583,13.97,94,100,2.57,US,1691611106
20,alice springs,-23.7,133.8833,7.75,66,0,3.09,AU,1691611106
21,vadso,70.0744,29.7487,23.49,77,20,5.14,NO,1691610956
22,polyarnyy,69.1989,33.4478,19.82,72,0,2.61,RU,1691611107
23,tiksi,71.6872,128.8694,15.5,54,8,3.37,RU,1691610751
24,lompoc,34.6391,-120.4579,29.45,77,75,3.09,US,1691611107
25,hawaiian paradise park,19.5933,-154.9731,25.57,86,100,4.63,US,1691611107
26,bethel,41.3712,-73.414,29.56,52,40,4.12,US,1691610810
27,mathba,22.2855,89.9629,27.24,85,98,2.27,BD,1691611107
28,blackmans bay,-43.0167,147.3167,12.63,69,100,3.49,AU,1691611107
29,mejit,10.2753,170.8646,27.77,71,77,4.62,MH,1691611108
30,port mathurin,-19.6833,63.4167,22.98,62,0,8.36,MU,1691610755
31,kinablangan,7.6947,126.5503,25.35,85,100,2.16,PH,1691611108
32,puerto baquerizo moreno,-0.9,-89.6,27.55,69,75,7.72,EC,1691610801
33,stanley,54.868,-1.6985,18.21,80,75,2.57,GB,1691610772
34,el nido,11.1858,119.3956,27.27,84,66,5.59,PH,1691611108
35,jamestown,42.097,-79.2353,27.23,56,0,7.72,US,1691610868
36,qusmuryn,52.4503,64.6311,20.0,58,100,5.61,KZ,1691611108
37,pacific grove,36.6177,-121.9166,21.82,81,40,5.14,US,1691611108
38,sitka,57.0531,-135.33,14.94,88,100,2.57,US,1691610757
39,bilibino,68.0546,166.4372,9.52,49,99,1.44,RU,1691610764
40,mahavelona,-17.6848,49.5087,18.99,92,72,4.54,MG,1691611109
41,inhambane,-23.865,35.3833,20.99,88,20,3.13,MZ,1691610819
42,suoyarvi,62.0833,32.35,16.92,94,99,1.12,RU,1691611109
43,labytnangi,66.6572,66.4183,9.72,79,7,2.88,RU,1691610770
44,sinop,41.7711,34.8709,16.62,82,7,0.97,TR,1691610773
45,zhob,31.3411,69.4481,30.17,35,99,1.61,PK,1691610897
46,mariental,-24.6333,17.9667,18.26,20,43,5.74,NA,1691610854
47,ciudad insurgentes,25.2625,-111.7753,36.21,34,0,7.04,MX,1691611110
48,margaret river,-33.95,115.0667,10.52,77,100,1.4,AU,1691610573
49,farasan,16.7022,42.1183,30.73,81,46,0.65,SA,1691611110
50,greymouth,-42.4667,171.2,3.77,81,66,4.19,NZ,1691611110
51,edinburgh of the seven seas,-37.0676,-12.3116,10.57,64,79,10.29,SH,1691610758
52,ola,59.5833,151.2833,11.02,68,9,3.7,RU,1691610760
53,invercargill,-46.4,168.35,-0.55,95,83,0.45,NZ,1691610755
54,college,64.8569,-147.8028,19.77,86,100,0.0,US,1691610645
55,bodo,67.28,14.405,19.32,55,0,7.2,NO,1691610594
56,dudinka,69.4058,86.1778,15.9,71,100,8.92,RU,1691610606
57,mahajanga,-15.7167,46.3167,24.01,78,20,2.57,MG,1691611111
58,qaqortoq,60.7167,-46.0333,8.04,73,18,2.04,GL,1691610626
59,neyriz,29.1988,54.3278,28.82,24,95,3.24,IR,1691611111
60,selfoss,63.9331,-20.9971,13.36,71,100,3.5,IS,1691610817
61,san felice circeo,41.2372,13.0942,23.09,69,27,4.56,IT,1691611111
62,petropavlovsk-kamchatsky,53.0452,158.6483,11.33,87,0,2.0,RU,1691610760
63,albany,42.6001,-73.9662,28.78,51,69,1.79,US,1691610913
64,arraial do cabo,-22.9661,-42.0278,22.92,73,40,7.72,BR,1691610604
65,afaahiti,-17.75,-149.2833,25.93,71,94,6.51,PF,1691610753
66,olonkinbyen,70.9221,-8.7187,5.94,99,100,3.92,SJ,1691610581
67,krasne,49.9145,24.6134,16.76,72,100,2.44,UA,1691611112
68,bedele,8.456,36.353,12.1,98,100,1.19,ET,1691611112
69,quellon,-43.1167,-73.6167,11.14,93,100,8.75,CL,1691610938
70,santa isabel,-23.3156,-46.2214,21.84,89,97,3.25,BR,1691611112
71,usinsk,65.9939,57.5281,13.93,72,100,2.72,RU,1691610799
72,mahalapye,-23.1041,26.8142,14.27,41,0,5.95,BW,1691611112
73,as sulayyil,20.4607,45.5779,37.14,9,5,3.46,SA,1691611112
74,ushuaia,-54.8,-68.3,8.81,53,75,4.63,AR,1691610585
75,brigantine,39.4101,-74.3646,31.69,47,0,5.14,US,1691611113
76,tolanaro,-25.0319,46.9987,20.04,88,20,6.17,MG,1691610749
77,yellowknife,62.456,-114.3525,21.29,43,75,8.23,CA,1691610749
78,saint-paul,-21.0096,55.2707,21.05,85,64,0.68,RE,1691611113
79,oranjemund,-28.55,16.4333,19.17,44,1,3.43,NA,1691610756
80,fort bragg,35.139,-79.006,32.85,41,40,2.24,US,1691610630
81,papatowai,-46.5619,169.4708,2.03,87,93,2.58,NZ,1691610754
82,bokani,9.4333,5.2,23.42,95,82,2.28,NG,1691611113
83,tommot,58.9564,126.2925,14.9,95,95,1.68,RU,1691611114
84,borovichi,58.3878,33.9155,14.81,86,49,1.43,RU,1691611114
85,aasiaat,68.7098,-52.8699,4.77,78,20,3.71,GL,1691610763
86,ilulissat,69.2167,-51.1,11.01,46,40,2.06,GL,1691610586
87,bremen,53.0752,8.8078,15.89,77,0,1.54,DE,1691611114
88,hovd,48.0056,91.6419,18.16,57,99,0.94,MN,1691611114
89,yarmouth,41.7057,-70.2286,29.26,57,40,3.6,US,1691611114
90,constantia,44.1833,28.65,17.61,63,0,4.46,RO,1691610572
91,brisas de zicatela,15.8369,-97.0419,31.58,60,98,3.71,MX,1691610994
92,vilyuchinsk,52.9306,158.4028,12.15,79,100,2.67,RU,1691610592
93,grand falls-windsor,48.9332,-55.6649,17.5,79,100,0.89,CA,1691611114
94,yatou,37.15,122.3833,24.12,93,0,3.98,CN,1691611115
95,ramadi,33.4226,43.3058,38.96,12,0,2.42,IQ,1691611115
96,labasa,-16.4167,179.3833,23.96,83,100,2.04,FJ,1691611115
97,tazovsky,67.4667,78.7,7.8,88,75,7.74,RU,1691610772
98,tondano,1.3038,124.9112,21.05,95,65,1.62,ID,1691610956
99,zaysan,47.4667,84.8667,17.87,67,4,2.91,KZ,1691611115
100,laguna,38.421,-121.4238,32.4,47,0,3.6,US,1691611115
101,lautoka,-17.6167,177.4667,21.92,83,75,2.06,FJ,1691611115
102,mount isa,-20.7333,139.5,7.87,81,6,0.0,AU,1691610775
103,portland,45.5234,-122.6762,29.23,50,75,2.57,US,1691611116
104,sona,45.4388,10.8255,24.75,57,0,2.06,IT,1691611116
105,arar,30.9753,41.0381,35.01,11,0,4.12,SA,1691611116
106,suileng,47.25,127.0833,15.28,91,0,0.68,CN,1691611116
107,posto fiscal rolim de moura,-13.0833,-62.2667,37.88,23,33,0.23,BR,1691611116
108,nova sintra,14.8667,-24.7167,23.03,73,54,7.86,CV,1691610650
109,alofi,-19.0595,-169.9187,25.94,94,50,1.03,NU,1691611116
110,lazaro cardenas,17.9583,-102.2,31.71,64,13,3.68,MX,1691610784
111,fort st. john,56.2499,-120.8529,19.94,60,75,3.09,CA,1691610673
112,saipan,15.1355,145.701,27.58,100,100,3.6,MP,1691610764
113,thompson,55.7435,-97.8558,18.09,52,75,5.14,CA,1691610753
114,popondetta,-8.7537,148.2534,21.69,80,95,1.07,PG,1691611117
115,hamilton,39.1834,-84.5333,28.33,75,0,5.14,US,1691610794
116,port lincoln,-34.7333,135.8667,12.28,63,99,4.44,AU,1691610758
117,port elizabeth,-33.918,25.5701,17.16,77,0,8.75,ZA,1691610774
118,laojunmiao,39.8333,97.7333,20.63,53,81,1.26,CN,1691611117
119,atafu village,-8.5421,-172.5159,28.24,80,100,6.63,TK,1691611117
120,puerto natales,-51.7236,-72.4875,3.91,93,92,0.61,CL,1691610614
121,malango,-2.9627,119.9001,18.22,98,35,0.79,ID,1691611117
122,tubarjal,30.4999,38.216,32.73,21,0,4.35,SA,1691611117
123,nar'yan-mar,67.6713,53.087,13.23,80,49,2.27,RU,1691610779
124,mount gambier,-37.8333,140.7667,10.15,76,99,4.97,AU,1691610776
125,bougouni,11.417,-7.479,26.47,73,76,3.03,ML,1691611118
126,ust-nera,64.5667,143.2,14.67,66,15,1.53,RU,1691610648
127,terrace,54.5163,-128.6035,15.95,77,100,7.72,CA,1691610829
128,flying fish cove,-10.4217,105.6791,23.82,88,75,6.17,CX,1691610604
129,keflavik,64.0049,-22.5624,15.95,67,75,5.66,IS,1691610638
130,khandyga,62.6667,135.6,11.96,68,0,0.53,RU,1691610782
131,maamba,-17.3667,27.15,16.68,41,0,1.63,ZM,1691611118
132,talnakh,69.4865,88.3972,15.67,63,100,2.53,RU,1691610756
133,gazojak,41.1875,61.4036,30.44,25,0,3.24,TM,1691611118
134,talladega,33.4359,-86.1058,31.97,66,0,3.09,US,1691611119
135,margate,51.3813,1.3862,17.72,73,0,2.68,GB,1691610872
136,kasese,0.1833,30.0833,23.0,57,63,1.45,UG,1691611119
137,touros,-5.1989,-35.4608,25.92,76,44,7.66,BR,1691610764
138,san patricio,28.017,-97.5169,40.66,40,0,9.1,US,1691610793
139,high rock,26.6208,-78.2833,30.01,72,79,4.06,BS,1691611119
140,pangody,65.85,74.4859,9.83,69,77,8.9,RU,1691610810
141,trujillo,-8.116,-79.03,22.98,78,75,4.12,PE,1691611119
142,mananara,-16.1667,49.7667,19.94,91,28,2.53,MG,1691611119
143,kodiak,57.79,-152.4072,11.73,100,100,2.06,US,1691610755
144,south hedland,-20.4089,118.5983,15.96,44,1,3.6,AU,1691610796
145,carnarvon,-24.8667,113.6333,19.43,76,35,4.61,AU,1691610801
146,hotan,37.0997,79.9269,28.15,27,64,3.05,CN,1691610970
147,bereznehuvate,47.3078,32.8499,19.71,48,61,4.31,UA,1691611120
148,punta arenas,-53.15,-70.9167,3.77,92,100,3.7,CL,1691611120
149,rio grande,-32.035,-52.0986,17.06,94,100,9.29,BR,1691610610
150,praia,14.9215,-23.5087,28.3,57,20,6.69,CV,1691610942
151,weno,7.4515,151.8468,25.97,100,40,0.0,FM,1691610760
152,reedsburg,43.5325,-90.0026,29.97,42,0,3.6,US,1691611120
153,san jose del guaviare,2.5729,-72.6459,29.6,68,86,0.74,CO,1691610989
154,avarua,-21.2078,-159.775,23.03,73,100,6.69,CK,1691610767
155,springfield,37.2153,-93.2982,26.21,89,75,5.66,US,1691610971
156,oyama,36.3,139.8,28.1,94,1,1.88,JP,1691611121
157,mikomeseng,2.1361,10.6132,20.39,99,72,1.15,GQ,1691611121
158,turpan,42.9333,89.1667,33.46,25,31,2.21,CN,1691611121
159,villa emilio carranza,19.9667,-96.6,31.7,62,58,5.2,MX,1691611121
160,utrik,11.2278,169.8474,27.99,74,89,5.03,MH,1691610577
161,wellston,39.1234,-82.5329,27.94,52,100,2.36,US,1691610956
162,east ballina,-28.8667,153.5833,8.22,87,8,2.61,AU,1691611122
163,pierre,44.3683,-100.351,30.48,48,0,2.06,US,1691611122
164,isafjordur,66.0755,-23.124,13.02,47,0,6.17,IS,1691610770
165,aland,17.5667,76.5667,25.46,75,100,4.99,IN,1691611122
166,bredasdorp,-34.5322,20.0403,11.02,93,0,2.03,ZA,1691610758
167,claremont,34.0967,-117.7198,31.95,57,0,5.14,US,1691611122
168,zouerate,22.7187,-12.4521,38.88,15,3,4.95,MR,1691610856
169,enewetak,11.3474,162.3373,28.4,77,82,6.53,MH,1691610754
170,jinhua,29.1078,119.6547,24.88,93,69,0.53,CN,1691611122
171,lorengau,-2.0226,147.2712,27.48,77,100,5.31,PG,1691611123
172,longyearbyen,78.2186,15.6401,10.91,54,0,0.51,SJ,1691610760
173,siquirres,10.0975,-83.5066,29.72,72,96,1.86,CR,1691611123
174,hasaki,35.7333,140.8333,26.28,85,32,4.5,JP,1691610782
175,altai,46.3722,96.2583,14.4,52,0,2.22,MN,1691610967
176,pokrovsk,48.282,37.1758,20.69,52,49,5.39,UA,1691611123
177,chernyshevskiy,63.0128,112.4714,14.92,95,67,0.8,RU,1691610804
178,fale old settlement,-9.3852,-171.2468,28.38,78,11,6.68,TK,1691610610
179,athens,37.9795,23.7162,27.31,38,20,4.02,GR,1691611123
180,anadyr,64.75,177.4833,9.28,81,75,4.0,RU,1691610598
181,olinda,-8.0089,-34.8553,26.85,65,40,6.69,BR,1691611124
182,puerto aysen,-45.4,-72.7,8.02,100,100,0.0,CL,1691611124
183,badger,64.8,-147.5333,19.73,87,100,0.45,US,1691610749
184,cill airne,52.05,-9.5167,22.03,73,20,3.09,IE,1691611124
185,muisne,0.6,-80.0333,26.28,79,100,5.22,EC,1691611124
186,la'ie,21.6477,-157.9253,28.66,68,77,3.13,US,1691610792
187,grand gaube,-20.0064,57.6608,22.43,66,31,1.34,MU,1691611124
188,kanggye,40.9695,126.5852,20.54,96,100,0.63,KP,1691611124
189,haiku-pauwela,20.9219,-156.3051,27.36,65,20,8.23,US,1691610758
190,huilong,31.8111,121.655,28.85,91,1,5.58,CN,1691611124
191,belek,36.8628,31.0556,28.32,79,0,0.51,TR,1691611125
192,novo aripuana,-5.1206,-60.3797,37.28,29,81,1.63,BR,1691611125
193,caudete,38.7068,-0.9872,27.99,72,4,0.51,ES,1691611125
194,trashi yangtse,27.6116,91.498,20.31,95,98,0.81,BT,1691611125
195,burang,30.25,81.1667,11.76,86,100,1.9,CN,1691611125
196,cabo san lucas,22.8909,-109.9124,32.01,62,55,3.37,MX,1691610771
197,hithadhoo,-0.6,73.0833,27.1,76,46,1.95,MV,1691610769
198,miri,4.4148,114.0089,25.08,94,20,1.54,MY,1691611125
199,laufen,47.95,12.9333,14.99,98,75,1.54,DE,1691611125
200,ilebo,-4.3167,20.5833,25.11,58,51,0.8,CD,1691611126
201,izucar de matamoros,18.6,-98.4667,30.52,36,43,2.54,MX,1691611126
202,kashgar,39.4547,75.9797,26.56,29,0,5.0,CN,1691610768
203,dharur,18.8167,76.1167,22.69,81,100,4.95,IN,1691611126
204,new glasgow,45.5834,-62.6486,20.44,86,73,5.98,CA,1691610992
205,lihue,21.9789,-159.3672,29.58,69,75,9.77,US,1691610987
206,hermanus,-34.4187,19.2345,13.23,86,0,4.43,ZA,1691610766
207,kingston,17.997,-76.7936,33.53,69,20,9.77,JM,1691611007
208,ponta delgada,37.7333,-25.6667,23.4,94,75,3.09,PT,1691611126
209,acapulco de juarez,16.8634,-99.8901,30.33,69,100,1.98,MX,1691611127
210,darwin,-12.4611,130.8418,22.99,78,75,2.06,AU,1691610667
211,verkhnevilyuysk,63.4453,120.3167,12.68,66,0,2.51,RU,1691610777
212,nushki,29.5542,66.0215,31.09,11,83,1.25,PK,1691611127
213,awjilah,29.1081,21.2869,28.06,45,0,7.38,LY,1691611127
214,albemarle,35.3501,-80.2001,32.05,46,40,2.57,US,1691610900
215,bundu,23.1833,85.5833,26.12,85,75,1.86,IN,1691611127
216,vila franca do campo,37.7167,-25.4333,23.23,94,100,5.3,PT,1691610769
217,mutsu,41.2894,141.2169,23.81,94,30,1.21,JP,1691611127
218,puerto cabezas,14.0351,-83.3888,29.98,84,40,3.09,NI,1691611127
219,baki,-7.6128,110.7839,21.0,82,96,1.11,ID,1691611128
220,suva,-18.1416,178.4415,19.71,100,75,1.54,FJ,1691611128
221,holualoa,19.6228,-155.9522,28.21,72,20,4.12,US,1691610811
222,ancud,-41.8697,-73.8203,10.63,92,100,7.72,CL,1691610798
223,pisco,-13.7,-76.2167,20.57,83,100,3.09,PE,1691611122
224,rongelap,11.1635,166.8941,27.87,76,42,2.61,MH,1691610665
225,sharanga,57.1775,46.5396,18.07,75,0,2.85,RU,1691611128
226,urengoy,65.9667,78.3667,8.27,95,100,7.1,RU,1691611128
227,sinabang,2.4803,96.3801,25.38,88,100,4.87,ID,1691611128
228,meadow lake,34.8014,-106.5436,33.04,22,42,2.91,US,1691611128
229,trairi,-3.2778,-39.2689,26.75,75,98,6.03,BR,1691611049
230,benguela,-12.5763,13.4055,20.3,82,88,0.91,AO,1691610793
231,saudarkrokur,65.7461,-19.6394,7.11,82,59,5.68,IS,1691611129
232,belyy yar,53.6039,91.3903,19.24,60,99,1.43,RU,1691611129
233,chicoana,-25.1009,-65.5331,25.03,20,52,2.9,AR,1691611129
234,rohri,27.6922,68.8951,32.93,55,41,5.14,PK,1691611129
235,tura,25.5198,90.2201,23.56,98,100,0.88,IN,1691610754
236,nishinoomote,30.7333,131.0,27.56,86,100,9.33,JP,1691610816
237,ghat,24.9647,10.1728,32.61,13,0,7.01,LY,1691611130
238,iskateley,67.6803,53.1512,13.01,81,44,2.3,RU,1691610753
239,banjarmasin,-3.3244,114.591,22.08,88,67,1.24,ID,1691611130
240,la maddalena,41.2142,9.4083,24.03,82,23,7.07,IT,1691611120
241,opuwo,-18.0607,13.84,18.77,35,22,3.03,NA,1691611130
242,an nuhud,12.7,28.4333,28.31,51,10,3.72,SD,1691611130
243,faruka,31.8872,72.4144,35.49,35,10,5.45,PK,1691611130
244,axim,4.8699,-2.2405,24.32,84,92,5.22,GH,1691611130
245,lebu,-37.6167,-73.65,12.24,92,100,10.07,CL,1691610618
246,aldan,58.6031,125.3894,13.95,79,95,3.58,RU,1691611131
247,xining,36.6167,101.7667,17.02,86,65,1.16,CN,1691611131
248,bacalar,18.6667,-88.3833,34.67,45,44,3.72,MX,1691611131
249,san antonio de pale,-1.4014,5.6325,23.76,81,94,5.3,GQ,1691610800
250,qiziltepa,40.0331,64.85,27.75,28,0,4.2,UZ,1691611131
251,bubaque,11.2833,-15.8333,27.34,82,61,3.39,GW,1691610808
252,howrah,22.5892,88.3103,29.0,89,100,3.6,IN,1691610792
253,st. john's,47.5649,-52.7093,15.44,83,75,5.66,CA,1691610779
254,santaella,37.5629,-4.8436,33.91,30,8,2.97,ES,1691611131
255,rizokarpaso,35.6,34.375,26.76,75,0,3.57,CY,1691611132
256,tazacorte,28.629,-17.9293,24.54,88,0,6.17,ES,1691610819
257,vidyayevo,69.3191,32.8049,17.86,78,0,0.49,RU,1691611132
258,barranca,-10.75,-77.7667,21.1,69,26,4.55,PE,1691611132
259,geraldton,-28.7667,114.6,9.23,87,100,2.57,AU,1691610550
260,sretensk,52.2453,117.7093,14.63,64,79,1.29,RU,1691611132
261,la sarre,48.8002,-79.1996,24.36,44,96,5.36,CA,1691610910
262,darovskoy,58.77,47.9564,17.39,83,8,1.64,RU,1691611132
263,nova vicosa,-17.8919,-39.3719,23.48,72,4,3.67,BR,1691610703
264,grootfontein,-19.5667,18.1167,17.76,29,99,2.06,NA,1691611133
265,uturoa,-16.7333,-151.4333,24.9,70,11,8.42,PF,1691610647
266,igarka,67.4667,86.5833,13.46,97,95,3.32,RU,1691610825
267,iqaluit,63.7506,-68.5145,4.85,93,100,3.6,CA,1691610765
268,nizhnegorskiy,45.4479,34.7384,21.76,55,26,2.61,UA,1691611133
269,prado,-17.3411,-39.2208,23.01,74,2,3.23,BR,1691610802
270,kalemie,-5.9475,29.1947,22.39,55,10,0.88,CD,1691611133
271,al 'amarah,31.8406,47.1396,40.51,11,3,4.24,IQ,1691611133
272,bintulu,3.1667,113.0333,25.23,88,20,2.68,MY,1691611133
273,plastun,44.7561,136.2939,16.5,98,100,1.87,RU,1691611133
274,tarma,-11.4197,-75.6908,16.78,56,45,6.47,PE,1691611133
275,inirida,3.8653,-67.9239,32.81,52,51,1.27,CO,1691611134
276,chonchi,-42.6128,-73.8092,10.56,97,100,3.31,CL,1691610754
277,toliara,-23.35,43.6667,20.97,79,0,5.84,MG,1691611134
278,northam,51.0333,-4.2167,18.47,94,87,1.65,GB,1691610818
279,labrador city,52.9463,-66.9114,12.95,94,100,4.63,CA,1691610813
280,port augusta,-32.5,137.7667,8.97,89,2,2.99,AU,1691610788
281,takahagi,36.7167,140.7167,26.16,98,18,0.45,JP,1691611134
282,kirakira,-10.4544,161.9205,24.98,89,100,3.7,SB,1691610811
283,ticleni,44.8833,23.4,20.3,49,100,1.81,RO,1691611134
284,kavaratti,10.5669,72.642,28.25,76,100,6.97,IN,1691610749
285,isangel,-19.55,169.2667,20.06,72,48,6.94,VU,1691611134
286,saki,8.6667,3.3833,21.55,97,100,3.22,NG,1691611135
287,bulolo,-7.2,146.65,21.13,96,100,0.22,PG,1691611135
288,fada,9.5667,8.3,20.27,96,65,1.18,NG,1691610755
289,elizabethton,36.3487,-82.2107,28.65,64,75,1.54,US,1691610961
290,ta`u,-14.2336,-169.5144,27.07,75,7,4.63,AS,1691610991
291,nikolayevsk-on-amure,53.1406,140.73,12.12,93,78,1.28,RU,1691611135
292,vol'sk,52.0333,47.3833,22.07,44,32,2.38,RU,1691611135
293,porbandar,21.6422,69.6093,27.01,83,100,8.24,IN,1691610961
294,kapa'a,22.0752,-159.319,29.99,75,75,9.77,US,1691610774
295,ouahigouya,13.5828,-2.4216,28.25,60,96,1.21,BF,1691611136
296,harstad,68.799,16.5293,20.66,71,40,2.49,NO,1691610771
297,klyuchi,52.2667,79.1667,20.48,44,89,2.62,RU,1691610761
298,vorkuta,67.5,64.0,8.52,82,49,2.97,RU,1691611136
299,liezen,47.5667,14.2333,13.71,98,100,1.24,AT,1691611136
300,callao,-12.0667,-77.15,22.16,68,100,4.63,PE,1691610727
301,hanover,52.3705,9.7332,16.98,67,75,3.09,DE,1691610849
302,kodinsk,58.6881,99.1844,14.21,86,28,1.37,RU,1691611136
303,saeby,57.3319,10.5225,12.2,73,100,9.71,DK,1691611136
304,pemba,-12.974,40.5178,24.39,88,20,7.72,MZ,1691611136
305,sabalgarh,26.25,77.4,27.38,73,94,5.59,IN,1691611137
306,eastham,41.8301,-69.9739,29.01,59,0,2.06,US,1691610973
307,mahibadhoo,3.7833,72.9667,27.81,78,100,5.86,MV,1691610766
308,itaituba,-4.2761,-55.9836,36.09,52,20,3.09,BR,1691611137
309,nemuro,43.3236,145.575,18.72,100,100,6.04,JP,1691610653
310,berber,18.0216,33.983,33.42,40,97,3.87,SD,1691611137
311,namie,37.4833,141.0,25.55,92,18,5.08,JP,1691611137
312,new norfolk,-42.7826,147.0587,13.29,75,100,2.84,AU,1691610773
313,jiangyou,31.7667,104.7167,24.78,89,60,1.54,CN,1691611137
314,turan,16.0678,108.2208,27.99,78,20,1.03,VN,1691610817
315,eraan,9.0629,117.7016,26.11,89,70,3.1,PH,1691610780
316,manokwari,-0.8667,134.0833,25.17,74,100,1.79,ID,1691611138
317,rundu,-17.9333,19.7667,19.53,27,86,3.38,NA,1691611138
318,yarkovo,57.4028,67.0786,15.5,92,97,2.23,RU,1691611138
319,thisted,56.9552,8.6949,12.86,74,98,11.03,DK,1691611138
320,qingdao,36.0986,120.3719,22.78,100,0,2.0,CN,1691611138
321,kamikawa,43.84,142.7711,22.36,96,40,1.8,JP,1691611138
322,muravlenko,63.7898,74.523,10.74,67,100,10.07,RU,1691611138
323,mao,39.8885,4.2658,25.31,78,0,2.06,ES,1691610778
324,dzagam,40.9033,45.8856,28.85,43,0,1.56,AZ,1691611139
325,baryshivka,50.361,31.3217,16.95,50,10,2.62,UA,1691611139
326,el calafate,-50.3408,-72.2768,3.33,87,32,1.86,AR,1691610790
327,katsuura,35.1333,140.3,26.06,88,64,4.49,JP,1691611139
328,yuxi,24.355,102.5422,18.42,98,100,0.6,CN,1691611139
329,merizo village,13.2658,144.6691,26.31,96,100,8.4,GU,1691611139
330,kafanchan,9.5833,8.3,20.39,96,64,1.24,NG,1691611139
331,naxos,37.1056,25.3764,26.84,71,0,9.83,GR,1691611139
332,orcopampa,-15.2661,-72.3417,14.86,30,79,4.89,PE,1691611139
333,cheboksary,56.1322,47.2519,20.33,68,0,2.0,RU,1691611140
334,luderitz,-26.6481,15.1594,23.63,44,71,3.79,NA,1691610822
335,remire-montjoly,4.9167,-52.2667,31.02,66,0,5.66,GF,1691610777
336,nadi,-17.8,177.4167,22.0,83,75,2.06,FJ,1691611140
337,arkhangel'sk,64.5401,40.5433,16.71,79,3,2.11,RU,1691610766
338,wickenburg,33.9686,-112.7296,38.43,28,3,5.67,US,1691611140
339,lata,40.1629,-8.3327,18.15,84,0,1.53,PT,1691611140
340,hammerfest,70.6634,23.6821,23.25,64,0,1.54,NO,1691610798
341,parambu,-6.2111,-40.6944,29.79,35,17,3.22,BR,1691611140
342,revda,56.801,59.9303,15.31,80,73,1.09,RU,1691611140
343,jimo,36.3897,120.4622,22.88,100,0,2.0,CN,1691611141
344,klaksvik,62.2266,-6.589,9.51,74,39,7.85,FO,1691611141
345,naze,28.3667,129.4833,25.51,88,76,5.68,JP,1691611141
346,tut,37.7953,37.9161,28.22,29,0,2.37,TR,1691611141
347,kreminna,49.0495,38.2179,21.39,54,33,4.35,UA,1691611141
348,roma,43.2128,-75.4557,27.68,56,40,7.2,US,1691611141
349,yekaterinoslavka,50.3734,129.1139,15.89,91,100,3.66,RU,1691611141
350,alo,7.4178,6.7371,23.59,96,91,1.68,NG,1691611142
351,chibougamau,49.9168,-74.3659,22.79,49,20,2.57,CA,1691611142
352,broome,42.2506,-75.833,26.77,70,40,3.09,US,1691611142
353,bardai,11.65,7.2333,23.27,87,100,3.46,NG,1691610647
354,san luis de la loma,17.2706,-100.8939,29.81,78,100,1.89,MX,1691610757
355,susuman,62.7833,148.1667,6.73,90,92,1.0,RU,1691610759
356,caleta olivia,-46.4393,-67.5281,15.43,51,100,10.02,AR,1691611143
357,bac lieu,9.285,105.7244,26.67,84,7,4.51,VN,1691611143
358,yelizovo,53.1873,158.3805,12.08,87,0,2.0,RU,1691610952
359,balkanabat,39.5108,54.3671,33.61,20,0,2.89,TM,1691611143
360,nhamunda,-2.1861,-56.7131,35.72,34,44,2.7,BR,1691611144
361,luganville,-15.5333,167.1667,20.68,91,100,4.26,VU,1691611144
362,pihani,27.6333,80.2,26.25,86,100,0.86,IN,1691611144
363,moissala,8.3404,17.7663,20.49,99,99,1.14,TD,1691611144
364,shymkent,42.3,69.6,24.33,50,0,4.0,KZ,1691611144
365,zapolyarnyy,69.4154,30.8136,22.6,73,1,1.95,RU,1691611145
366,plonsk,52.6235,20.3755,13.02,90,100,1.91,PL,1691611145
367,lochau,47.5212,9.7685,16.62,84,75,1.54,AT,1691611145
368,faya-largeau,17.9257,19.1043,35.17,39,8,3.31,TD,1691611145
369,houma,29.5958,-90.7195,35.0,38,10,6.31,US,1691611145
370,nuuk,64.1835,-51.7216,7.34,81,75,5.66,GL,1691610978
371,east london,-33.0153,27.9116,17.35,78,72,7.71,ZA,1691610754
372,minas de marcona,-15.2119,-75.1103,17.93,61,6,5.0,PE,1691610757
373,fuglafjordur,62.244,-6.814,9.26,75,30,6.47,FO,1691611146
374,zelenoborskiy,66.845,32.3622,12.03,92,13,1.84,RU,1691611146
375,genhe,50.7833,121.5167,12.14,97,74,0.77,CN,1691611146
376,barano d'ischia,40.718,13.9309,23.17,79,54,3.58,IT,1691611146
377,udachny,66.4167,112.4,15.25,50,97,3.16,RU,1691610758
378,el jadid,33.2549,-8.506,22.65,91,1,5.55,MA,1691611147
379,zhuanghe,39.7008,122.9911,22.71,83,0,3.46,CN,1691611147
380,huarmey,-10.0681,-78.1522,22.58,67,67,5.33,PE,1691611132
381,codrington,-38.2667,141.9667,10.38,81,60,7.08,AU,1691610774
382,tvoroyri,61.5556,-6.8111,10.02,75,32,5.37,FO,1691611147
383,port douglas,-16.4833,145.4667,21.21,80,99,6.99,AU,1691610660
384,nizhniy odes,63.6445,54.856,14.36,65,0,1.59,RU,1691611148
385,barra de santo antonio,-9.4047,-35.5072,24.6,76,71,4.44,BR,1691610773
386,am timan,11.0297,20.2827,21.84,96,100,1.72,TD,1691611148
387,aracati,-4.5617,-37.7697,27.21,71,78,6.55,BR,1691611148
388,uttar char fasson,22.2332,90.7132,28.29,78,100,3.34,BD,1691610799
389,durban,-29.8579,31.0292,18.51,74,100,3.05,ZA,1691611148
390,bantogon,6.5333,124.0333,26.08,80,100,1.48,PH,1691611148
391,coahuayana de hidalgo,18.7,-103.6583,34.14,58,13,3.68,MX,1691610778
392,kudahuvadhoo,2.6708,72.8944,27.56,78,85,5.38,MV,1691611149
393,novo horizonte,-21.4681,-49.2208,32.59,20,0,3.39,BR,1691610853
394,itoman,26.1247,127.6694,27.43,100,40,3.09,JP,1691611149
395,bima,-8.4667,118.7167,20.46,93,37,1.55,ID,1691611149
396,guerrero negro,27.9769,-114.0611,27.77,58,13,7.47,MX,1691610607
397,marsh harbour,26.5412,-77.0636,30.56,67,66,1.83,BS,1691611149
398,ulsteinvik,62.3432,5.8487,12.64,91,100,3.58,NO,1691611149
399,taltal,-25.4,-70.4833,17.99,70,83,1.51,CL,1691610621
400,kolonia town,6.964,158.206,27.97,76,100,4.86,FM,1691611150
401,fockbek,54.3,9.6,14.54,76,84,4.63,DE,1691611150
402,sangola,17.4333,75.2,24.83,75,100,5.16,IN,1691611150
403,ulan bator,47.9077,106.8832,17.07,88,40,2.0,MN,1691611150
404,kapuskasing,49.4169,-82.4331,23.05,68,75,4.12,CA,1691610672
405,shingu,33.7333,135.9833,26.19,93,85,5.96,JP,1691611150
406,maragogi,-9.0122,-35.2225,24.28,75,5,4.48,BR,1691610949
407,gualdo tadino,43.2317,12.781,20.53,59,64,1.73,IT,1691611150
408,porto velho,-8.7619,-63.9039,32.03,70,20,1.54,BR,1691610861
409,chul'man,56.8479,124.9104,13.27,86,24,2.28,RU,1691611151
410,gobabis,-22.45,18.9667,14.81,27,90,6.57,NA,1691610784
411,creel,27.75,-107.6333,25.02,32,91,2.04,MX,1691610830
412,lagos,6.5833,3.75,27.18,89,75,3.22,NG,1691611024
413,lospalos,-8.5186,127.0025,19.81,94,54,1.98,TL,1691611151
414,nuku'alofa,-21.1333,-175.2,21.19,94,75,3.09,TO,1691610814
415,vanersborg,58.3807,12.3234,13.97,88,100,3.09,SE,1691611151
416,sao vicente,-23.9631,-46.3919,23.1,51,100,2.57,BR,1691610921
417,esquel,-42.9,-71.3167,8.75,81,100,2.58,AR,1691611024
418,la passe,45.5549,-0.8967,28.13,44,0,4.65,FR,1691610790
419,kemerovo,55.3333,86.0833,14.83,100,40,2.0,RU,1691611152
420,yuzhno-kurilsk,44.0306,145.8556,19.59,100,100,4.44,RU,1691611152
421,kozhevnikovo,56.2589,83.9714,11.81,92,21,2.37,RU,1691611152
422,fortuna,40.5982,-124.1573,22.74,75,100,5.66,US,1691611152
423,kharp,66.8014,65.8081,9.24,83,7,3.74,RU,1691611152
424,santa eularia des riu,38.9846,1.5341,27.39,75,0,1.54,ES,1691611153
425,weihai,37.5017,122.1136,25.34,88,0,4.34,CN,1691611153
426,kachia,9.8667,7.95,21.0,96,67,1.84,NG,1691611153
427,nabire,-3.3667,135.4833,23.59,88,61,1.57,ID,1691611153
428,port alfred,-33.5906,26.891,16.21,87,48,1.79,ZA,1691610798
429,kiama,-34.6833,150.8667,15.32,65,88,3.58,AU,1691611153
430,kencong,-8.2833,113.3667,19.86,91,15,0.88,ID,1691611153
431,limulunga,-15.0969,23.1376,19.15,29,2,3.92,ZM,1691611153
432,dhidhdhoo,6.8833,73.1,28.21,77,100,7.01,MV,1691610803
433,tadine,-21.55,167.8833,18.08,61,0,6.41,NC,1691611154
434,kilmore,-37.3,144.95,8.31,97,100,1.57,AU,1691611154
435,benito juarez,19.385,-99.165,24.35,32,64,1.99,MX,1691611154
436,karacabey,40.2152,28.4038,22.89,71,79,6.37,TR,1691611154
437,tambopata,-12.7333,-69.1833,33.94,52,40,2.57,PE,1691611154
438,yurty,56.0498,97.6348,15.13,96,100,2.71,RU,1691611155
439,robore,-18.3333,-59.75,33.05,52,0,0.0,BO,1691611155
440,coquimbo,-29.9533,-71.3436,14.85,82,100,3.6,CL,1691610620
441,griffith,41.5284,-87.4237,26.64,67,0,2.06,US,1691611155
442,qinggang,46.6833,126.0833,15.6,93,3,1.64,CN,1691611155
443,kurlovo,55.4325,40.4854,17.59,97,1,2.82,RU,1691611155
444,island harbour,50.724,-1.2758,19.53,84,0,1.7,GB,1691611155
445,fayroz koh,34.5195,65.2509,15.82,42,0,1.6,AF,1691611155
446,russkaya polyana,49.417,31.9201,17.98,54,81,2.66,UA,1691611156
447,borsa,47.6553,24.6633,12.97,80,100,1.75,RO,1691611156
448,smithers,54.7804,-127.1743,16.18,82,75,2.57,CA,1691610761
449,midvagur,62.0511,-7.1939,9.46,81,75,6.69,FO,1691610930
450,sarkand,45.41,79.9186,20.47,41,0,3.7,KZ,1691611156
451,zaragoza,41.6561,-0.8773,35.25,39,0,1.79,ES,1691611156
452,thinadhoo,0.5333,72.9333,27.45,76,85,3.47,MV,1691610799
453,prince george,53.9166,-122.753,21.25,55,75,3.6,CA,1691611156
454,castillos,-34.1667,-53.8333,15.92,81,59,5.22,UY,1691610963
455,chinde,26.8418,88.0763,18.44,96,93,0.71,NP,1691611157
456,fazilpur,32.1833,75.0667,27.36,84,51,3.16,PK,1691611157
457,neem ka thana,27.7333,75.8,27.79,64,97,6.48,IN,1691611157
458,ballina,-28.8667,153.5667,8.21,88,8,2.55,AU,1691611157
459,basoko,1.2391,23.616,23.47,86,100,0.92,CD,1691611157
460,muana,-1.5283,-49.2167,30.88,58,84,3.53,BR,1691611157
461,sola,-13.8833,167.55,23.12,84,100,10.68,VU,1691611157
462,linden,6.0,-58.3,34.64,43,72,1.74,GY,1691611158
463,sao felix do xingu,-6.6447,-51.995,33.84,31,81,0.62,BR,1691610632
464,mazamari,-11.3258,-74.5308,29.28,57,82,0.37,PE,1691611158
465,hun,29.1268,15.9477,28.99,36,0,6.24,LY,1691611158
466,taulaga,-11.0553,-171.0883,27.57,81,26,6.9,AS,1691611158
467,amalfi,6.9102,-75.0776,26.78,47,32,2.33,CO,1691611158
468,petoskey,45.3733,-84.9553,30.17,71,0,5.36,US,1691611066
469,boende,-0.2167,20.8667,22.88,92,65,1.14,CD,1691611158
470,sultanah,24.4926,39.5857,38.25,19,0,5.66,SA,1691611159
471,laminusa,5.5549,120.9136,27.53,77,61,1.51,PH,1691611159
472,al jawf,29.5,38.75,32.75,18,0,2.76,SA,1691610808
473,truckee,39.328,-120.1833,29.85,25,40,4.63,US,1691611040
474,champerico,14.3,-91.9167,36.3,70,13,3.06,GT,1691611159
475,acarau,-2.8856,-40.12,27.36,71,80,6.84,BR,1691610774
476,prince rupert,54.3161,-130.3201,15.05,93,100,6.17,CA,1691610753
477,saint-pierre,-21.3393,55.4781,19.82,77,0,3.09,RE,1691611159
478,ban su-ngai pa di,6.0724,101.8717,24.79,97,74,1.16,TH,1691611159
479,sisimiut,66.9395,-53.6735,6.7,78,100,3.8,GL,1691610806
480,imbituba,-28.24,-48.6703,18.81,96,100,6.16,BR,1691611160
481,harrisburg,40.2737,-76.8844,31.08,49,40,4.63,US,1691610990
482,songea,-10.6833,35.65,17.64,63,0,1.03,TZ,1691611065
483,ribadeo,43.5325,-7.0991,19.33,92,84,0.61,ES,1691611160
484,tralee,52.2704,-9.7026,22.14,73,20,3.09,IE,1691610803
485,zakamensk,50.3741,103.2863,13.52,97,22,0.5,RU,1691610812
486,guatire,10.4762,-66.5427,27.24,82,90,0.11,VE,1691611160
487,maneromango,-7.1988,38.7848,19.47,89,52,3.38,TZ,1691611160
488,andovoranto,-18.95,49.1,18.56,91,49,1.02,MG,1691611161
489,bochum,51.4833,7.2167,17.98,66,1,2.68,DE,1691611142
490,dombarovskiy,50.7587,59.5386,16.76,80,50,5.58,RU,1691611161
491,ust'-ilimsk,58.0006,102.6619,16.27,89,100,0.59,RU,1691610781
492,akureyri,65.6835,-18.0878,9.96,71,40,3.6,IS,1691611161
493,katabu,-4.9333,122.5167,22.6,86,50,1.68,ID,1691611161
494,bousso,10.4795,16.7117,21.03,98,100,2.0,TD,1691611161
495,sale,34.0389,-6.8166,24.8,88,75,2.06,MA,1691611162
496,myitkyina,25.3833,97.4,23.83,100,100,0.18,MM,1691611162
497,tamanrasset,22.785,5.5228,29.95,26,40,5.66,DZ,1691611162
498,rawson,-43.3002,-65.1023,21.09,23,77,7.52,AR,1691610776
499,nyurba,63.2842,118.3319,13.98,68,0,2.58,RU,1691611162
500,myeik,12.4333,98.6,25.73,89,100,3.15,MM,1691611162
501,mpophomeni,-29.5682,30.1862,11.46,94,98,1.19,ZA,1691611162
502,mpongwe,-13.5091,28.155,17.43,32,0,4.47,ZM,1691611163
503,saint-joseph,-21.3667,55.6167,19.21,78,20,3.64,RE,1691610960
504,barrancas,10.9576,-72.7877,32.8,59,65,3.83,CO,1691611163
505,chui,-33.6971,-53.4616,16.43,80,76,5.68,UY,1691610797
506,fort mcmurray,56.7268,-111.381,15.77,82,100,5.66,CA,1691610960
507,harrisonburg,38.4496,-78.8689,30.65,44,75,3.09,US,1691611163
508,okha,53.5739,142.9478,13.14,93,87,3.02,RU,1691611163
509,potosi,-19.5836,-65.7531,15.48,27,0,4.12,BO,1691611163
510,bhamo,24.2667,97.2333,24.0,100,100,0.19,MM,1691611163
511,ikovka,55.6089,64.9375,16.78,73,18,2.72,RU,1691611163
512,colonia,50.9333,6.95,19.36,68,0,3.6,DE,1691610874
513,saskatoon,52.1168,-106.6345,18.99,52,75,6.17,CA,1691610876
514,betio village,1.358,172.9211,26.02,74,100,2.34,KI,1691610779
515,poronaysk,49.2167,143.1167,14.49,93,100,1.09,RU,1691611164
516,shenkursk,62.1091,42.896,17.26,87,6,2.14,RU,1691611164
517,morehead city,34.7229,-76.726,32.01,67,0,5.66,US,1691610582
518,lethem,3.3803,-59.7968,32.34,56,88,1.38,GY,1691611165
519,kontcha,7.9667,12.2333,21.97,94,100,0.66,CM,1691611165
520,zaltan,32.947,11.8665,25.18,57,0,4.54,LY,1691611165
521,polohy,47.4844,36.2536,22.11,50,9,6.29,UA,1691611165
522,bari sadri,24.4167,74.4667,22.72,93,78,4.16,IN,1691611165
523,krasnoobsk,54.9198,82.9909,11.95,80,16,1.07,RU,1691611165
524,kolonia,50.9333,6.95,19.36,68,0,3.6,DE,1691610781
525,isla mujeres,21.2311,-86.731,31.05,67,17,4.72,MX,1691611166
526,vorgashor,67.5833,63.95,8.36,83,38,2.85,RU,1691610764
527,dubbo,-32.25,148.6167,3.07,93,0,2.57,AU,1691611167
528,benjamin constant,-4.3831,-70.0311,32.07,70,40,2.57,BR,1691611167
529,mournies,35.4764,24.0092,27.68,78,0,0.0,GR,1691611167
530,cromer,52.9312,1.2989,20.04,80,57,4.69,GB,1691611167
531,eyl,7.9803,49.8164,25.19,78,28,10.42,SO,1691611167
532,forster,-32.1667,152.5167,9.36,67,76,2.68,AU,1691611168
533,wellington,-41.2866,174.7756,6.81,95,100,11.83,NZ,1691610938
534,atbara,17.7022,33.9864,30.1,52,99,2.36,SD,1691611168
535,peterborough,52.5736,-0.2478,22.4,60,20,1.03,GB,1691610947
536,perugorria,-29.3413,-58.6106,21.48,59,51,3.34,AR,1691611168
537,bella vista,36.4295,-94.2316,31.96,72,40,4.63,US,1691610951
538,kuanda,56.3161,116.0806,18.32,62,100,2.84,RU,1691610780
539,kongolo,-5.3833,27.0,27.72,30,16,1.64,CD,1691611169
540,kone,-21.0595,164.8658,16.63,76,65,2.87,NC,1691610803
541,waingapu,-9.6567,120.2641,22.03,87,30,3.86,ID,1691611169
542,ovruch,51.3246,28.8035,16.35,60,98,1.09,UA,1691611169
543,isiro,2.7739,27.616,19.49,98,79,0.38,CD,1691611169
544,ribeira brava,32.65,-17.0667,25.62,67,4,1.25,PT,1691611169
545,urzhar,47.093,81.6294,20.12,59,6,2.37,KZ,1691611169
546,quelimane,-17.8786,36.8883,18.97,100,75,1.54,MZ,1691611169
547,leua,48.2156,18.6071,14.39,91,92,1.44,SK,1691610776
548,harper,4.375,-7.7169,24.4,82,100,5.5,LR,1691610784
549,praia da vitoria,38.7333,-27.0667,27.14,69,20,4.73,PT,1691610759
550,villa de san diego de ubate,5.3093,-73.8157,19.34,55,50,3.67,CO,1691611170
551,namdrik,5.5994,168.1028,27.54,76,99,2.44,MH,1691610767
552,vizinga,61.0749,50.1031,16.23,83,9,0.8,RU,1691611170
553,camalu,30.85,-116.0667,25.28,66,23,4.93,MX,1691611170
554,altay,47.8667,88.1167,15.49,81,11,0.72,CN,1691611171
555,salalah,17.0151,54.0924,24.65,95,100,2.92,OM,1691611171
556,blenheim,-41.516,173.9528,1.96,92,100,1.72,NZ,1691611171
557,macapa,0.0389,-51.0664,32.99,66,40,5.14,BR,1691611120
558,salahonda,2.1019,-78.7217,27.17,81,28,5.82,CO,1691611171
559,fort scott,37.8398,-94.7083,26.88,85,100,2.81,US,1691611171
560,alva,56.1528,-3.8051,17.59,83,79,0.89,GB,1691611171
561,porto novo,6.4965,2.6036,25.9,87,100,4.19,BJ,1691610555
562,vila do maio,15.1333,-23.2167,28.44,75,100,6.57,CV,1691610603
563,mugia,43.1041,-9.2179,22.17,75,97,6.93,ES,1691611172
564,puerto san jose,13.9256,-90.8244,30.79,67,24,3.47,GT,1691611172
565,brookings,44.3114,-96.7984,27.32,59,20,0.45,US,1691610489
566,peniche,39.3558,-9.3811,21.36,92,5,2.28,PT,1691610820
567,leominster,42.5251,-71.7598,28.46,52,93,1.79,US,1691611172
568,hanumangarh,29.5833,74.3167,33.88,41,76,3.72,IN,1691611173
